[
  {
    "id": "heavenly-tahoe",
    "name": "Heavenly",
    "region": "Lake Tahoe",
    "state": "CA/NV",
    "coordinates": { "lat": 38.9353, "lon": -119.94 },
    "elevation": { "base": 6540, "summit": 10067 },
    "trailCount": 97,
    "liftCount": 28,
    "terrainPct": {
      "beginner": 20,
      "intermediate": 45,
      "advanced": 35,
      "expert": 0
    },
    "googlePlaceId": "ChIJ-ZRLfeu5mokRkpGzxwQPKFk",
    "subreddit": "tahoe"
  },
  {
    "id": "kirkwood",
    "name": "Kirkwood",
    "region": "Lake Tahoe",
    "state": "CA",
    "coordinates": { "lat": 38.6839, "lon": -120.0681 },
    "elevation": { "base": 7800, "summit": 9800 },
    "trailCount": 86,
    "liftCount": 15,
    "terrainPct": {
      "beginner": 12,
      "intermediate": 30,
      "advanced": 38,
      "expert": 20
    },
    "subreddit": "tahoe"
  },
  {
    "id": "okemo",
    "name": "Okemo",
    "region": "Vermont",
    "state": "VT",
    "coordinates": { "lat": 43.4014, "lon": -72.7167 },
    "elevation": { "base": 1144, "summit": 3344 },
    "trailCount": 121,
    "liftCount": 20,
    "terrainPct": {
      "beginner": 33,
      "intermediate": 37,
      "advanced": 30,
      "expert": 0
    },
    "subreddit": "icecoast"
  },
  {
    "id": "mount-snow",
    "name": "Mount Snow",
    "region": "Vermont",
    "state": "VT",
    "coordinates": { "lat": 42.9589, "lon": -72.9219 },
    "elevation": { "base": 1900, "summit": 3600 },
    "trailCount": 86,
    "liftCount": 20,
    "terrainPct": {
      "beginner": 16,
      "intermediate": 66,
      "advanced": 18,
      "expert": 0
    },
    "subreddit": "icecoast"
  },
  {
    "id": "hunter-mountain",
    "name": "Hunter Mountain",
    "region": "Catskills",
    "state": "NY",
    "coordinates": { "lat": 42.2003, "lon": -74.2303 },
    "elevation": { "base": 1600, "summit": 3200 },
    "trailCount": 67,
    "liftCount": 13,
    "terrainPct": {
      "beginner": 25,
      "intermediate": 30,
      "advanced": 45,
      "expert": 0
    },
    "subreddit": "icecoast"
  }
]
